Time[ms]; Pressure [Pa]; Approx altitude [m]; Temperature [degC]; accX [m/s2]; accY [m/s2]; accZ [m/s2]; rotX [rad/s]; rotY [rad/s]; rotZ [rad/s]; magX [uT]; magY [uT]; magZ [uT]; roll [deg]; pitch [deg]; heading [deg]; tempMPU [degC]; delta pressure [Pa]; speed [m/s]; tempPitot [degC]; Satellites []; Date [yyyy-mm-dd]; Time [hh:mm:ss]; Latitude [deg]; Longitude [deg]; Relative X [m]; Relative Y [m]; Altitude [m]; Angle [deg]; Ch0; Ch1; Ch2; Ch3; Ch4; Ch5; Ch6; Ch7; Ch8; Ch9; 
298837; 101324; -0.70; 28.2; -0.546; 0.024; 9.753; 0.022; 0.004; -0.002; 28.832; 10.116; 4.290; -180.0; 3.0; 160.2; 31.7; -47.35; 8.87; 23.1; 12; 2025-05-13; 10:18:45; 51.935535; 4.194976; -126.588585; -24.067318; 7.8; 0.00; 1099.00; 1099.00; 645.00; 1085.00; 1599.00; 1598.00; 600.00; 598.00; 0.00; 0.00; 
298858; 101324; -0.70; 28.2; -0.694; -0.230; 9.666; 0.016; 0.002; -0.007; 27.063; 10.471; 3.604; 180.0; 3.1; 160.2; 31.7; -48.40; 8.97; 23.1; 12; 2025-05-13; 10:18:45; 51.935535; 4.194976; -126.588585; -24.067318; 7.8; 0.00; 1099.00; 1099.00; 642.00; 1085.00; 1599.00; 1598.00; 600.00; 598.00; 0.00; 0.00; 
298957; 101327; -0.96; 28.2; -0.623; 0.038; 9.748; -0.017; 0.000; -0.009; 27.063; 10.471; 3.604; 180.0; 3.1; 160.1; 31.6; -48.40; 8.97; 23.1; 12; 2025-05-13; 10:18:45; 51.935535; 4.194976; -126.588585; -24.067318; 7.8; 0.00; 1099.00; 1099.00; 639.00; 1084.00; 1599.00; 1599.00; 599.00; 600.00; 0.00; 0.00; 
299057; 101328; -1.05; 28.2; -0.646; 0.402; 9.815; -0.004; 0.000; -0.005; 27.063; 10.471; 3.604; -179.9; 3.2; 160.1; 31.6; -47.35; 8.87; 23.1; 12; 2025-05-13; 10:18:45; 51.935535; 4.194976; -126.588585; -24.067318; 7.8; 0.00; 1100.00; 1102.00; 642.00; 1083.00; 1599.00; 1599.00; 599.00; 599.00; 0.00; 0.00; 
299157; 101328; -1.08; 28.2; -0.623; 0.019; 9.834; 0.020; 0.006; -0.006; 27.063; 10.471; 3.604; -179.9; 3.2; 160.0; 31.7; -53.66; 9.44; 23.1; 12; 2025-05-13; 10:18:46; 51.935535; 4.194975; -126.611443; -24.160158; 7.8; 0.00; 1099.00; 1099.00; 643.00; 1079.00; 1599.00; 1599.00; 599.00; 599.00; 0.00; 0.00; 
299257; 101327; -1.02; 28.2; -0.656; 0.096; 9.762; -0.001; 0.000; -0.013; 27.063; 10.471; 3.604; -179.9; 3.2; 160.0; 31.6; -55.76; 9.62; 23.1; 12; 2025-05-13; 10:18:46; 51.935535; 4.194975; -126.611443; -24.160158; 7.8; 0.00; 1099.00; 1099.00; 642.00; 1082.00; 1599.00; 1600.00; 599.00; 599.00; 0.00; 0.00; 
299357; 101328; -1.05; 28.2; -0.623; 0.057; 9.757; 0.074; -0.001; -0.007; 26.886; 10.293; 3.432; -179.8; 3.2; 159.9; 31.7; -48.40; 8.97; 23.1; 12; 2025-05-13; 10:18:46; 51.935535; 4.194975; -126.611443; -24.160158; 7.8; 0.00; 1099.00; 1099.00; 642.00; 1085.00; 1598.00; 1600.00; 600.00; 600.00; 0.00; 0.00; 
299457; 101326; -0.88; 28.2; -0.613; 0.019; 9.863; 0.033; 0.000; 0.000; 26.886; 10.293; 3.432; -179.8; 3.3; 159.9; 31.7; -51.55; 9.25; 23.1; 12; 2025-05-13; 10:18:46; 51.935535; 4.194975; -126.611443; -24.160158; 7.8; 0.00; 1099.00; 1100.00; 643.00; 1085.00; 1598.00; 1599.00; 600.00; 599.00; 0.00; 0.00; 
299557; 101326; -0.91; 28.2; -0.642; -0.215; 9.705; 0.009; 0.001; -0.004; 26.886; 10.293; 3.432; -179.9; 3.3; 159.8; 31.7; -46.29; 8.77; 23.1; 12; 2025-05-13; 10:18:46; 51.935535; 4.194975; -126.611443; -24.160158; 7.8; 0.00; 1100.00; 1102.00; 643.00; 1084.00; 1602.00; 1599.00; 599.00; 599.00; 0.00; 0.00; 
299657; 101329; -1.17; 28.2; -0.747; 0.029; 9.671; -0.005; 0.004; -0.007; 26.886; 10.293; 3.432; -179.9; 3.3; 159.8; 31.7; -55.76; 9.62; 23.1; 12; 2025-05-13; 10:18:46; 51.935535; 4.194975; -126.611443; -24.160158; 7.8; 0.00; 1096.00; 1099.00; 643.00; 1084.00; 1597.00; 1599.00; 599.00; 599.00; 0.00; 0.00; 
299757; 101330; -1.25; 28.2; -0.613; 0.043; 9.690; 0.013; 0.002; -0.003; 26.886; 10.293; 3.432; -179.9; 3.4; 159.8; 31.6; -31.56; 7.24; 23.1; 12; 2025-05-13; 10:18:46; 51.935535; 4.194975; -126.611443; -24.160158; 7.8; 0.00; 1099.00; 1099.00; 643.00; 1094.00; 1599.00; 1600.00; 600.00; 600.00; 0.00; 0.00; 
299857; 101330; -1.23; 28.2; -0.646; -0.139; 9.762; 0.003; 0.002; -0.005; 27.240; 10.648; 2.746; -179.9; 3.4; 159.7; 31.7; -55.76; 9.62; 23.1; 12; 2025-05-13; 10:18:46; 51.935535; 4.194975; -126.611443; -24.160158; 7.8; 0.00; 1099.00; 1103.00; 644.00; 1085.00; 1599.00; 1600.00; 599.00; 600.00; 0.00; 0.00; 
299957; 101332; -1.42; 28.2; -0.608; 0.010; 9.748; 0.003; 0.001; -0.007; 27.240; 10.648; 2.746; -179.9; 3.4; 159.7; 31.7; -48.40; 8.97; 23.1; 12; 2025-05-13; 10:18:46; 51.935535; 4.194975; -126.611443; -24.160158; 7.8; 0.00; 1100.00; 1101.00; 644.00; 1084.00; 1599.00; 1599.00; 599.00; 599.00; 0.00; 0.00; 
300057; 101327; -0.98; 28.2; -0.618; 0.105; 9.786; 0.004; 0.002; 0.002; 27.240; 10.648; 2.746; -179.9; 3.4; 159.6; 31.6; -58.92; 9.89; 23.1; 12; 2025-05-13; 10:18:46; 51.935535; 4.194975; -126.611443; -24.160158; 7.8; 0.00; 1099.00; 1100.00; 644.00; 1086.00; 1599.00; 1599.00; 599.00; 599.00; 0.00; 0.00; 
300157; 101327; -0.96; 28.2; -0.618; -0.239; 9.805; 0.000; 0.002; -0.007; 27.240; 10.648; 2.746; -180.0; 3.4; 159.6; 31.7; -53.66; 9.44; 23.1; 12; 2025-05-13; 10:18:47; 51.935535; 4.194974; -126.680069; -24.160158; 7.8; 0.00; 1099.00; 1099.00; 643.00; 1084.00; 1598.00; 1599.00; 599.00; 599.00; 0.00; 0.00; 
300257; 101327; -1.01; 28.2; -0.680; 0.057; 9.757; 0.007; 0.005; -0.004; 27.240; 10.648; 2.746; -180.0; 3.4; 159.5; 31.7; -53.66; 9.44; 23.1; 12; 2025-05-13; 10:18:47; 51.935535; 4.194974; -126.680069; -24.160158; 7.8; 0.00; 1099.00; 1099.00; 644.00; 1085.00; 1599.00; 1599.00; 600.00; 600.00; 0.00; 0.00; 
300357; 101326; -0.89; 28.2; -0.623; -0.019; 9.743; 0.010; 0.002; -0.001; 27.240; 10.648; 2.746; -180.0; 3.5; 159.5; 31.7; -47.35; 8.87; 23.1; 12; 2025-05-13; 10:18:47; 51.935535; 4.194974; -126.680069; -24.160158; 7.8; 0.00; 1099.00; 1102.00; 643.00; 1083.00; 1598.00; 1599.00; 599.00; 599.00; 0.00; 0.00; 
300457; 101330; -1.21; 28.2; -0.584; 0.125; 9.844; 0.006; 0.003; -0.010; 27.240; 10.648; 2.746; -179.9; 3.5; 159.5; 31.7; -47.35; 8.87; 23.1; 12; 2025-05-13; 10:18:47; 51.935535; 4.194974; -126.680069; -24.160158; 7.8; 0.00; 1100.00; 1100.00; 643.00; 1085.00; 1600.00; 1599.00; 599.00; 599.00; 0.00; 0.00; 
300557; 101330; -1.21; 28.2; -0.651; 0.000; 9.757; 0.001; 0.002; -0.007; 27.240; 10.648; 2.746; -179.9; 3.5; 159.4; 31.7; -47.35; 8.87; 23.1; 12; 2025-05-13; 10:18:47; 51.935535; 4.194974; -126.680069; -24.160158; 7.8; 0.00; 1099.00; 1099.00; 643.00; 1085.00; 1599.00; 1599.00; 599.00; 599.00; 0.00; 0.00; 
300657; 101330; -1.27; 28.2; -0.632; 0.062; 9.714; 0.002; 0.000; -0.002; 27.240; 10.648; 2.746; -179.9; 3.5; 159.4; 31.7; -55.76; 9.62; 23.1; 12; 2025-05-13; 10:18:47; 51.935535; 4.194974; -126.680069; -24.160158; 7.8; 0.00; 1099.00; 1099.00; 642.00; 1084.00; 1602.00; 1600.00; 599.00; 599.00; 0.00; 0.00; 
300757; 101327; -0.95; 28.2; -0.656; 0.048; 9.681; 0.009; 0.000; -0.004; 27.240; 10.648; 2.746; -179.9; 3.5; 159.4; 31.7; -55.76; 9.62; 23.1; 12; 2025-05-13; 10:18:47; 51.935535; 4.194974; -126.680069; -24.160158; 7.8; 0.00; 1099.00; 1099.00; 627.00; 1087.00; 1600.00; 1599.00; 599.00; 600.00; 0.00; 0.00; 
300857; 101327; -0.98; 28.2; -0.627; 0.081; 9.719; 0.014; 0.004; -0.007; 27.063; 10.471; 4.290; -179.9; 3.5; 159.3; 31.7; -53.66; 9.44; 23.1; 12; 2025-05-13; 10:18:47; 51.935535; 4.194974; -126.680069; -24.160158; 7.8; 0.00; 1100.00; 1100.00; 643.00; 1086.00; 1601.00; 1599.00; 599.00; 599.00; 0.00; 0.00; 
300957; 101328; -1.06; 28.2; -0.560; 0.038; 9.733; 0.019; -0.001; -0.006; 27.063; 10.471; 4.290; -179.9; 3.5; 159.3; 31.7; -46.29; 8.77; 23.1; 12; 2025-05-13; 10:18:47; 51.935535; 4.194974; -126.680069; -24.160158; 7.8; 0.00; 1099.00; 1100.00; 640.00; 1085.00; 1599.00; 1599.00; 599.00; 599.00; 0.00; 0.00; 
301057; 101327; -0.97; 28.2; -0.627; -0.010; 9.863; 0.022; 0.003; -0.004; 27.063; 10.471; 4.290; -179.9; 3.5; 159.3; 31.7; -47.35; 8.87; 23.1; 12; 2025-05-13; 10:18:47; 51.935535; 4.194974; -126.680069; -24.160158; 7.8; 0.00; 1099.00; 1099.00; 642.00; 1085.00; 1600.00; 1599.00; 599.00; 599.00; 0.00; 0.00; 
301157; 101327; -1.02; 28.2; -0.623; -0.024; 9.719; 0.006; 0.003; -0.011; 27.063; 10.471; 4.290; -179.9; 3.5; 159.3; 31.7; -46.29; 8.77; 23.1; 12; 2025-05-13; 10:18:48; 51.935535; 4.194974; -126.714386; -24.141567; 7.8; 0.00; 1099.00; 1100.00; 644.00; 1083.00; 1597.00; 1599.00; 600.00; 600.00; 0.00; 0.00; 
301257; 101328; -1.08; 28.2; -0.608; 0.072; 9.781; 0.012; 0.004; -0.003; 27.063; 10.471; 4.290; -179.9; 3.5; 159.3; 31.7; -46.29; 8.77; 23.1; 12; 2025-05-13; 10:18:48; 51.935535; 4.194974; -126.714386; -24.141567; 7.9; 0.00; 1099.00; 1099.00; 642.00; 1085.00; 1599.00; 1599.00; 599.00; 599.00; 0.00; 0.00; 
301357; 101328; -1.09; 28.2; -0.546; 0.043; 9.805; 0.013; 0.004; -0.005; 27.063; 10.471; 4.290; -179.9; 3.5; 159.3; 31.7; -46.29; 8.77; 23.1; 12; 2025-05-13; 10:18:48; 51.935535; 4.194974; -126.714386; -24.141567; 7.9; 0.00; 1100.00; 1102.00; 644.00; 1085.00; 1597.00; 1599.00; 599.00; 599.00; 0.00; 0.00; 
301457; 101327; -0.98; 28.2; -0.536; -0.038; 9.786; -0.006; 0.005; -0.007; 27.063; 10.471; 4.290; -179.9; 3.5; 159.3; 31.7; -46.29; 8.77; 23.1; 12; 2025-05-13; 10:18:48; 51.935535; 4.194974; -126.714386; -24.141567; 7.9; 0.00; 1099.00; 1099.00; 643.00; 1085.00; 1599.00; 1599.00; 599.00; 599.00; 0.00; 0.00; 
301557; 101329; -1.15; 28.2; -0.642; 0.134; 9.676; 0.004; 0.001; -0.001; 27.063; 10.471; 4.290; -179.8; 3.5; 159.2; 31.6; -51.55; 9.25; 23.1; 12; 2025-05-13; 10:18:48; 51.935535; 4.194974; -126.714386; -24.141567; 7.9; 0.00; 1099.00; 1100.00; 642.00; 1085.00; 1598.00; 1600.00; 599.00; 599.00; 0.00; 0.00; 
301657; 101328; -1.10; 28.2; -0.637; -0.096; 9.733; 0.015; 0.000; -0.003; 27.063; 10.471; 4.290; -179.9; 3.5; 159.2; 31.7; -55.76; 9.62; 23.1; 12; 2025-05-13; 10:18:48; 51.935535; 4.194974; -126.714386; -24.141567; 7.9; 0.00; 1099.00; 1099.00; 644.00; 1084.00; 1598.00; 1595.00; 599.00; 600.00; 0.00; 0.00; 
301757; 101327; -0.95; 28.2; -0.608; -0.010; 9.666; 0.009; 0.003; -0.005; 27.063; 10.471; 4.290; -179.9; 3.5; 159.2; 31.7; -43.14; 8.46; 23.1; 12; 2025-05-13; 10:18:48; 51.935535; 4.194974; -126.714386; -24.141567; 7.9; 0.00; 1099.00; 1099.00; 643.00; 1084.00; 1598.00; 1599.00; 599.00; 599.00; 0.00; 0.00; 
301857; 101330; -1.26; 28.2; -0.656; 0.000; 9.642; -0.009; 0.000; -0.010; 27.063; 10.471; 4.290; -179.9; 3.5; 159.2; 31.7; -44.19; 8.57; 23.1; 12; 2025-05-13; 10:18:48; 51.935535; 4.194974; -126.714386; -24.141567; 7.9; 0.00; 1099.00; 1102.00; 642.00; 1085.00; 1597.00; 1599.00; 599.00; 599.00; 0.00; 0.00; 
301957; 101330; -1.22; 28.2; -0.632; 0.120; 9.729; 0.021; 0.001; -0.004; 27.063; 10.471; 4.290; -179.9; 3.6; 159.2; 31.7; -46.29; 8.77; 23.1; 12; 2025-05-13; 10:18:48; 51.935535; 4.194974; -126.714386; -24.141567; 7.9; 0.00; 1099.00; 1101.00; 644.00; 1086.00; 1600.00; 1599.00; 599.00; 599.00; 0.00; 0.00; 
302057; 101329; -1.14; 28.2; -0.603; 0.000; 9.776; 0.027; 0.005; -0.006; 27.063; 10.471; 4.290; -179.9; 3.6; 159.2; 31.7; -48.40; 8.97; 23.1; 12; 2025-05-13; 10:18:48; 51.935535; 4.194974; -126.714386; -24.141567; 7.9; 0.00; 1099.00; 1103.00; 642.00; 1084.00; 1600.00; 1600.00; 600.00; 600.00; 0.00; 0.00; 
302157; 101328; -1.08; 28.2; -0.646; -0.014; 9.743; -0.002; 0.003; 0.001; 27.063; 10.471; 4.290; -179.9; 3.6; 159.2; 31.7; -47.35; 8.87; 23.1; 12; 2025-05-13; 10:18:49; 51.935535; 4.194973; -126.771561; -24.197227; 7.9; 0.00; 1099.00; 1102.00; 644.00; 1085.00; 1598.00; 1599.00; 599.00; 600.00; 0.00; 0.00; 
302257; 101329; -1.12; 28.2; -0.632; 0.125; 9.690; -0.017; 0.002; -0.003; 28.478; 9.406; 1.888; -179.8; 3.6; 159.3; 31.7; -46.29; 8.77; 23.1; 12; 2025-05-13; 10:18:49; 51.935535; 4.194973; -126.771561; -24.197227; 7.8; 0.00; 1100.00; 1102.00; 644.00; 1085.00; 1600.00; 1599.00; 599.00; 599.00; 0.00; 0.00; 
302357; 101328; -1.05; 28.2; -0.642; 0.014; 9.844; 0.022; 0.005; -0.010; 28.478; 9.406; 1.888; -179.8; 3.6; 159.4; 31.7; -46.29; 8.77; 23.1; 12; 2025-05-13; 10:18:49; 51.935535; 4.194973; -126.771561; -24.197227; 7.8; 0.00; 1118.00; 1100.00; 643.00; 1083.00; 1599.00; 1599.00; 599.00; 599.00; 0.00; 0.00; 
302457; 101327; -1.00; 28.2; -0.579; -0.134; 9.839; 0.005; 0.004; -0.012; 28.478; 9.406; 1.888; -179.9; 3.6; 159.5; 31.7; -47.35; 8.87; 23.1; 12; 2025-05-13; 10:18:49; 51.935535; 4.194973; -126.771561; -24.197227; 7.8; 0.00; 1078.00; 1099.00; 644.00; 1085.00; 1599.00; 1600.00; 599.00; 599.00; 0.00; 0.00; 
302557; 101327; -0.98; 28.2; -0.551; 0.115; 9.695; 0.003; 0.002; -0.003; 28.478; 9.406; 1.888; -179.9; 3.6; 159.7; 31.7; -44.19; 8.57; 23.1; 12; 2025-05-13; 10:18:49; 51.935535; 4.194973; -126.771561; -24.197227; 7.8; 0.00; 1099.00; 1099.00; 642.00; 1085.00; 1600.00; 1600.00; 600.00; 600.00; 0.00; 0.00; 
302657; 101327; -0.99; 28.2; -0.603; -0.062; 9.729; 0.034; 0.003; -0.002; 28.478; 9.406; 1.888; -179.9; 3.6; 159.8; 31.7; -53.66; 9.44; 23.1; 12; 2025-05-13; 10:18:49; 51.935535; 4.194973; -126.771561; -24.197227; 7.8; 0.00; 1099.00; 1099.00; 642.00; 1085.00; 1597.00; 1599.00; 599.00; 600.00; 0.00; 0.00; 
302757; 101326; -0.94; 28.2; -0.608; -0.129; 9.772; 0.017; 0.006; -0.012; 28.124; 8.341; 2.574; -179.9; 3.6; 159.9; 31.7; -55.76; 9.62; 23.1; 12; 2025-05-13; 10:18:49; 51.935535; 4.194973; -126.771561; -24.197227; 7.8; 0.00; 1100.00; 1099.00; 643.00; 1082.00; 1611.00; 1599.00; 599.00; 599.00; 0.00; 0.00; 
302857; 101328; -1.05; 28.2; -0.632; 0.120; 9.791; -0.010; 0.003; -0.006; 28.124; 8.341; 2.574; -179.9; 3.6; 160.1; 31.7; -55.76; 9.62; 23.1; 12; 2025-05-13; 10:18:49; 51.935535; 4.194973; -126.771561; -24.197227; 7.8; 0.00; 1099.00; 1102.00; 644.00; 1084.00; 1598.00; 1599.00; 599.00; 599.00; 0.00; 0.00; 
302957; 101326; -0.87; 28.2; -0.627; -0.029; 9.729; 0.013; 0.006; 0.002; 28.124; 8.341; 2.574; -179.9; 3.6; 160.3; 31.7; -55.76; 9.62; 23.1; 12; 2025-05-13; 10:18:49; 51.935535; 4.194973; -126.771561; -24.197227; 7.8; 0.00; 1099.00; 1101.00; 642.00; 1085.00; 1600.00; 1600.00; 600.00; 600.00; 0.00; 0.00; 
303057; 101326; -0.91; 28.2; -0.627; 0.014; 9.729; 0.005; 0.004; -0.003; 28.124; 8.341; 2.574; -179.9; 3.6; 160.5; 31.6; -46.29; 8.77; 23.1; 12; 2025-05-13; 10:18:49; 51.935535; 4.194973; -126.771561; -24.197227; 7.8; 0.00; 1099.00; 1099.00; 643.00; 1083.00; 1599.00; 1599.00; 599.00; 599.00; 0.00; 0.00; 
303157; 101328; -1.04; 28.3; -0.623; 0.072; 9.614; 0.001; 0.006; -0.010; 28.124; 8.341; 2.574; -179.9; 3.6; 160.6; 31.7; -47.35; 8.87; 23.1; 12; 2025-05-13; 10:18:50; 51.935535; 4.194973; -126.760170; -24.289955; 7.8; 0.00; 1100.00; 1100.00; 641.00; 1081.00; 1605.00; 1599.00; 599.00; 599.00; 0.00; 0.00; 
303257; 101329; -1.17; 28.3; -0.632; 0.038; 9.647; 0.004; -0.001; -0.003; 28.124; 8.341; 2.574; -179.9; 3.6; 160.8; 31.7; -46.29; 8.77; 23.1; 12; 2025-05-13; 10:18:50; 51.935535; 4.194973; -126.760170; -24.289955; 7.8; 0.00; 1099.00; 1100.00; 645.00; 1085.00; 1599.00; 1599.00; 599.00; 599.00; 0.00; 0.00; 
303357; 101329; -1.14; 28.3; -0.627; 0.034; 9.891; -0.007; 0.003; -0.001; 28.124; 8.341; 2.574; -179.9; 3.6; 160.9; 31.7; -46.29; 8.77; 23.1; 12; 2025-05-13; 10:18:50; 51.935535; 4.194973; -126.760170; -24.289955; 7.8; 0.00; 1099.00; 1099.00; 643.00; 1084.00; 1599.00; 1600.00; 600.00; 599.00; 0.00; 0.00; 
303457; 101329; -1.12; 28.3; -0.666; 0.115; 9.733; 0.014; 0.004; -0.003; 28.124; 8.341; 2.574; -179.9; 3.6; 161.0; 31.7; -46.29; 8.77; 23.1; 12; 2025-05-13; 10:18:50; 51.935535; 4.194973; -126.760170; -24.289955; 7.8; 0.00; 1099.00; 1101.00; 643.00; 1086.00; 1599.00; 1599.00; 599.00; 599.00; 0.00; 0.00; 
303557; 101331; -1.30; 28.3; -0.642; 0.072; 9.748; 0.007; 0.004; -0.002; 28.124; 8.341; 2.574; -179.9; 3.6; 161.2; 31.7; -51.55; 9.25; 23.1; 12; 2025-05-13; 10:18:50; 51.935535; 4.194973; -126.760170; -24.289955; 7.8; 0.00; 1099.00; 1099.00; 642.00; 1086.00; 1599.00; 1599.00; 599.00; 599.00; 0.00; 0.00; 
303657; 101330; -1.22; 28.3; -0.555; 0.029; 9.719; -0.007; 0.003; -0.006; 28.124; 8.341; 2.574; -179.9; 3.6; 161.3; 31.7; -44.19; 8.57; 23.1; 12; 2025-05-13; 10:18:50; 51.935535; 4.194973; -126.760170; -24.289955; 7.8; 0.00; 1100.00; 1101.00; 643.00; 1085.00; 1599.00; 1599.00; 599.00; 599.00; 0.00; 0.00; 
303757; 101331; -1.32; 28.3; -0.728; 0.268; 9.695; 0.017; -0.001; -0.003; 28.124; 8.341; 2.574; -179.8; 3.6; 161.4; 31.7; -51.55; 9.25; 23.1; 12; 2025-05-13; 10:18:50; 51.935535; 4.194973; -126.760170; -24.289955; 7.8; 0.00; 1099.00; 1101.00; 644.00; 1083.00; 1599.00; 1599.00; 599.00; 599.00; 0.00; 0.00; 
303857; 101330; -1.24; 28.3; -0.661; 0.005; 9.642; 0.015; 0.004; -0.007; 28.124; 8.341; 2.574; -179.8; 3.6; 161.5; 31.7; -55.76; 9.62; 23.1; 12; 2025-05-13; 10:18:50; 51.935535; 4.194973; -126.760170; -24.289955; 7.8; 0.00; 1099.00; 1100.00; 645.00; 1085.00; 1598.00; 1600.00; 599.00; 600.00; 0.00; 0.00; 
303957; 101329; -1.17; 28.3; -0.646; 0.139; 9.705; -0.007; 0.002; -0.007; 28.124; 8.341; 2.574; -179.8; 3.6; 161.6; 31.7; -53.66; 9.44; 23.1; 12; 2025-05-13; 10:18:50; 51.935535; 4.194973; -126.760170; -24.289955; 7.8; 0.00; 1099.00; 1099.00; 643.00; 1084.00; 1599.00; 1599.00; 599.00; 600.00; 0.00; 0.00; 
304057; 101330; -1.22; 28.3; -0.656; 0.215; 9.666; 0.001; 0.003; -0.004; 28.124; 8.341; 2.574; -179.7; 3.7; 161.7; 31.7; -47.35; 8.87; 23.1; 12; 2025-05-13; 10:18:50; 51.935535; 4.194973; -126.760170; -24.289955; 7.8; 0.00; 1100.00; 1099.00; 650.00; 1082.00; 1599.00; 1599.00; 599.00; 599.00; 0.00; 0.00; 
304157; 101328; -1.10; 28.3; -0.675; 0.230; 9.757; 0.014; 0.003; -0.006; 28.124; 8.341; 2.574; -179.7; 3.7; 161.8; 31.7; -48.40; 8.97; 23.1; 12; 2025-05-13; 10:18:51; 51.935535; 4.194973; -126.771561; -24.327137; 7.8; 0.00; 1099.00; 1099.00; 644.00; 1086.00; 1599.00; 1599.00; 599.00; 599.00; 0.00; 0.00; 
304257; 101330; -1.21; 28.3; -0.747; 0.072; 9.623; 0.006; 0.006; -0.007; 28.124; 8.341; 2.574; -179.7; 3.7; 161.9; 31.7; -55.76; 9.62; 23.1; 12; 2025-05-13; 10:18:51; 51.935535; 4.194973; -126.771561; -24.327137; 7.8; 0.00; 1099.00; 1099.00; 643.00; 1086.00; 1601.00; 1599.00; 600.00; 599.00; 0.00; 0.00; 
304357; 101328; -1.06; 28.3; -0.651; 0.096; 9.733; -0.010; 0.007; 0.000; 28.124; 8.341; 2.574; -179.7; 3.7; 162.0; 31.7; -55.76; 9.62; 23.1; 12; 2025-05-13; 10:18:51; 51.935535; 4.194973; -126.771561; -24.327137; 7.8; 0.00; 1100.00; 1099.00; 642.00; 1086.00; 1599.00; 1599.00; 600.00; 600.00; 0.00; 0.00; 
304457; 101329; -1.12; 28.3; -0.632; 0.192; 9.666; 0.022; 0.005; -0.002; 28.124; 8.341; 2.574; -179.6; 3.7; 162.1; 31.7; -56.81; 9.71; 23.1; 12; 2025-05-13; 10:18:51; 51.935535; 4.194973; -126.771561; -24.327137; 7.8; 0.00; 1100.00; 1099.00; 644.00; 1087.00; 1599.00; 1599.00; 599.00; 599.00; 0.00; 0.00; 
304557; 101330; -1.22; 28.3; -0.742; 0.062; 9.657; 0.019; 0.004; -0.009; 28.124; 8.341; 2.574; -179.6; 3.8; 162.1; 31.7; -56.81; 9.71; 23.1; 12; 2025-05-13; 10:18:51; 51.935535; 4.194973; -126.771561; -24.327137; 7.8; 0.00; 1100.00; 1100.00; 643.00; 1085.00; 1598.00; 1599.00; 599.00; 599.00; 0.00; 0.00; 
304657; 101332; -1.38; 28.3; -0.661; 0.177; 9.590; 0.015; 0.000; 0.002; 25.825; 7.454; 4.805; -179.6; 3.8; 162.2; 31.7; -44.19; 8.57; 23.1; 12; 2025-05-13; 10:18:51; 51.935535; 4.194973; -126.771561; -24.327137; 7.8; 0.00; 1099.00; 1100.00; 646.00; 1084.00; 1599.00; 1599.00; 599.00; 599.00; 0.00; 0.00; 
304757; 101330; -1.20; 28.3; -0.670; 0.057; 9.709; 0.018; 0.002; 0.000; 25.825; 7.454; 4.805; -179.6; 3.8; 162.3; 31.7; -44.19; 8.57; 23.1; 12; 2025-05-13; 10:18:51; 51.935535; 4.194973; -126.771561; -24.327137; 7.8; 0.00; 1099.00; 1100.00; 642.00; 1085.00; 1597.00; 1600.00; 600.00; 599.00; 0.00; 0.00; 
304857; 101330; -1.24; 28.3; -0.675; -0.077; 9.709; 0.014; 0.003; -0.007; 25.825; 7.454; 4.805; -179.7; 3.8; 162.4; 31.7; -41.03; 8.26; 23.1; 12; 2025-05-13; 10:18:51; 51.935535; 4.194973; -126.771561; -24.327137; 7.8; 0.00; 1099.00; 1100.00; 646.00; 1084.00; 1598.00; 1599.00; 599.00; 600.00; 0.00; 0.00; 
304957; 101329; -1.12; 28.3; -0.618; -0.005; 9.647; 0.015; 0.003; -0.011; 25.825; 7.454; 4.805; -179.7; 3.8; 162.5; 31.7; -39.98; 8.15; 23.1; 12; 2025-05-13; 10:18:51; 51.935535; 4.194973; -126.771561; -24.327137; 7.8; 0.00; 1100.00; 1101.00; 645.00; 1085.00; 1599.00; 1599.00; 599.00; 599.00; 0.00; 0.00; 
305057; 101327; -0.95; 28.3; -0.651; 0.110; 9.681; 0.021; 0.007; -0.003; 25.825; 7.454; 4.805; -179.7; 3.8; 162.6; 31.7; -37.88; 7.93; 23.1; 12; 2025-05-13; 10:18:51; 51.935535; 4.194973; -126.771561; -24.327137; 7.8; 0.00; 1099.00; 1101.00; 643.00; 1087.00; 1600.00; 1600.00; 599.00; 600.00; 0.00; 0.00; 
305157; 101331; -1.29; 28.3; -0.651; 0.057; 9.724; 0.011; 0.002; -0.007; 25.825; 7.454; 4.805; -179.7; 3.8; 162.6; 31.7; -47.35; 8.87; 23.1; 12; 2025-05-13; 10:18:52; 51.935535; 4.194972; -126.863113; -24.345615; 7.8; 0.00; 1099.00; 1099.00; 646.00; 1084.00; 1597.00; 1600.00; 600.00; 600.00; 0.00; 0.00; 
305257; 101329; -1.14; 28.3; -0.584; 0.101; 9.729; 0.013; 0.003; -0.004; 25.825; 7.454; 4.805; -179.7; 3.7; 162.7; 31.7; -41.03; 8.26; 23.1; 12; 2025-05-13; 10:18:52; 51.935535; 4.194972; -126.863113; -24.345615; 7.7; 0.00; 1099.00; 1101.00; 643.00; 1086.00; 1599.00; 1599.00; 600.00; 600.00; 0.00; 0.00; 
305357; 101325; -0.83; 28.3; -0.747; 0.077; 9.685; 0.022; 0.001; -0.002; 25.825; 7.454; 4.805; -179.7; 3.8; 162.8; 31.7; -48.40; 8.97; 23.1; 12; 2025-05-13; 10:18:52; 51.935535; 4.194972; -126.863113; -24.345615; 7.7; 0.00; 1099.00; 1100.00; 644.00; 1083.00; 1597.00; 1591.00; 599.00; 599.00; 0.00; 0.00; 
305457; 101327; -0.96; 28.3; -0.627; -0.062; 9.748; 0.025; 0.004; -0.012; 25.825; 7.454; 4.805; -179.7; 3.8; 162.8; 31.7; -25.25; 6.48; 23.1; 12; 2025-05-13; 10:18:52; 51.935535; 4.194972; -126.863113; -24.345615; 7.7; 0.00; 1100.00; 1100.00; 644.00; 1083.00; 1597.00; 1599.00; 599.00; 599.00; 0.00; 0.00; 
305557; 101328; -1.09; 28.3; -0.646; 0.072; 9.791; 0.015; 0.003; -0.017; 25.825; 7.454; 4.805; -179.7; 3.8; 162.9; 31.7; -41.03; 8.26; 23.1; 12; 2025-05-13; 10:18:52; 51.935535; 4.194972; -126.863113; -24.345615; 7.7; 0.00; 1099.00; 1099.00; 643.00; 1086.00; 1598.00; 1599.00; 599.00; 599.00; 0.00; 0.00; 
305657; 101329; -1.17; 28.3; -0.733; 0.249; 9.791; 0.018; 0.002; -0.001; 27.417; 9.051; 2.917; -179.7; 3.8; 162.9; 31.7; -36.82; 7.82; 23.1; 12; 2025-05-13; 10:18:52; 51.935535; 4.194972; -126.863113; -24.345615; 7.7; 0.00; 1099.00; 1100.00; 635.00; 1085.00; 1599.00; 1600.00; 600.00; 599.00; 0.00; 0.00; 
305757; 101328; -1.09; 28.3; -0.603; -0.081; 9.738; 0.003; 0.002; 0.009; 27.417; 9.051; 2.917; -179.7; 3.8; 162.8; 31.7; -37.88; 7.93; 23.1; 12; 2025-05-13; 10:18:52; 51.935535; 4.194972; -126.863113; -24.345615; 7.7; 0.00; 1099.00; 1101.00; 646.00; 1085.00; 1599.00; 1599.00; 599.00; 600.00; 0.00; 0.00; 
305857; 101330; -1.24; 28.3; -0.646; -0.077; 9.714; 0.002; 0.001; -0.003; 27.417; 9.051; 2.917; -179.7; 3.8; 162.8; 31.7; -46.29; 8.77; 23.1; 12; 2025-05-13; 10:18:52; 51.935535; 4.194972; -126.863113; -24.345615; 7.7; 0.00; 1100.00; 1100.00; 641.00; 1084.00; 1602.00; 1599.00; 599.00; 600.00; 0.00; 0.00; 
305957; 101330; -1.20; 28.3; -0.694; 0.101; 9.676; 0.002; 0.007; -0.010; 27.417; 9.051; 2.917; -179.7; 3.8; 162.7; 31.7; -41.03; 8.26; 23.1; 12; 2025-05-13; 10:18:52; 51.935535; 4.194972; -126.863113; -24.345615; 7.7; 0.00; 1099.00; 1100.00; 644.00; 1085.00; 1599.00; 1599.00; 599.00; 599.00; 0.00; 0.00; 
306057; 101333; -1.47; 28.3; -0.637; 0.168; 9.872; 0.028; 0.002; -0.011; 27.417; 9.051; 2.917; -179.7; 3.8; 162.7; 31.7; -44.19; 8.57; 23.1; 12; 2025-05-13; 10:18:52; 51.935535; 4.194972; -126.863113; -24.345615; 7.7; 0.00; 1099.00; 1100.00; 643.00; 1086.00; 1600.00; 1599.00; 599.00; 599.00; 0.00; 0.00; 
306157; 101331; -1.31; 28.3; -0.627; 0.168; 9.705; 0.016; 0.002; -0.005; 26.532; 10.648; 2.746; -179.6; 3.8; 162.4; 31.7; -37.88; 7.93; 23.1; 12; 2025-05-13; 10:18:53; 51.935535; 4.194972; -126.863113; -24.289955; 7.7; 0.00; 1099.00; 1099.00; 643.00; 1084.00; 1597.00; 1600.00; 600.00; 600.00; 0.00; 0.00; 
306257; 101331; -1.35; 28.3; -0.603; -0.105; 9.834; -0.013; 0.002; -0.006; 26.532; 10.648; 2.746; -179.7; 3.8; 162.2; 31.6; -37.88; 7.93; 23.1; 12; 2025-05-13; 10:18:53; 51.935535; 4.194972; -126.863113; -24.289955; 7.7; 0.00; 1099.00; 1102.00; 641.00; 1087.00; 1598.00; 1599.00; 599.00; 599.00; 0.00; 0.00; 
306357; 101328; -1.09; 28.3; -0.661; 0.273; 9.705; 0.017; 0.001; -0.013; 26.532; 10.648; 2.746; -179.6; 3.8; 162.0; 31.7; -46.29; 8.77; 23.1; 12; 2025-05-13; 10:18:53; 51.935535; 4.194972; -126.863113; -24.289955; 7.7; 0.00; 1100.00; 1101.00; 643.00; 1082.00; 1600.00; 1599.00; 599.00; 599.00; 0.00; 0.00; 
306457; 101328; -1.11; 28.3; -0.560; 0.019; 9.805; 0.014; 0.002; -0.004; 26.532; 10.648; 2.746; -179.6; 3.8; 161.9; 31.7; -39.98; 8.15; 23.1; 12; 2025-05-13; 10:18:53; 51.935535; 4.194972; -126.863113; -24.289955; 7.7; 0.00; 1099.00; 1101.00; 641.00; 1084.00; 1602.00; 1599.00; 599.00; 599.00; 0.00; 0.00; 
306557; 101328; -1.09; 28.3; -0.680; -0.024; 9.781; -0.002; 0.004; -0.001; 26.532; 10.648; 2.746; -179.6; 3.8; 161.7; 31.6; -41.03; 8.26; 23.1; 12; 2025-05-13; 10:18:53; 51.935535; 4.194972; -126.863113; -24.289955; 7.7; 0.00; 1099.00; 1101.00; 643.00; 1085.00; 1602.00; 1600.00; 600.00; 600.00; 0.00; 0.00; 
306657; 101329; -1.15; 28.3; -0.637; 0.067; 9.638; 0.028; 0.006; -0.005; 26.532; 10.648; 2.746; -179.6; 3.8; 161.5; 31.7; -41.03; 8.26; 23.1; 12; 2025-05-13; 10:18:53; 51.935535; 4.194972; -126.863113; -24.289955; 7.7; 0.00; 1099.00; 1101.00; 642.00; 1087.00; 1599.00; 1599.00; 600.00; 600.00; 0.00; 0.00; 
306757; 101330; -1.24; 28.3; -0.656; 0.034; 9.791; 0.025; 0.002; -0.010; 26.532; 10.648; 2.746; -179.6; 3.8; 161.3; 31.7; -39.98; 8.15; 23.1; 12; 2025-05-13; 10:18:53; 51.935535; 4.194972; -126.863113; -24.289955; 7.7; 0.00; 1099.00; 1100.00; 611.00; 1084.00; 1601.00; 1599.00; 599.00; 599.00; 0.00; 0.00; 
306857; 101328; -1.09; 28.3; -0.642; 0.091; 9.705; 0.005; 0.006; -0.002; 26.532; 10.648; 2.746; -179.6; 3.8; 161.2; 31.7; -43.14; 8.46; 23.1; 12; 2025-05-13; 10:18:53; 51.935535; 4.194972; -126.863113; -24.289955; 7.7; 0.00; 1100.00; 1100.00; 643.00; 1084.00; 1598.00; 1599.00; 599.00; 599.00; 0.00; 0.00; 
306957; 101329; -1.12; 28.3; -0.603; 0.019; 9.767; 0.005; 0.006; -0.002; 26.532; 10.648; 2.746; -179.6; 3.8; 161.0; 31.7; -36.82; 7.82; 23.1; 12; 2025-05-13; 10:18:53; 51.935535; 4.194972; -126.863113; -24.289955; 7.7; 0.00; 1099.00; 1099.00; 642.00; 1086.00; 1599.00; 1599.00; 599.00; 599.00; 0.00; 0.00; 
307057; 101329; -1.13; 28.3; -0.589; 0.067; 9.714; 0.027; 0.001; -0.010; 26.532; 10.648; 2.746; -179.6; 3.8; 160.9; 31.7; -43.14; 8.46; 23.1; 12; 2025-05-13; 10:18:53; 51.935535; 4.194972; -126.863113; -24.289955; 7.7; 0.00; 1099.00; 1100.00; 641.00; 1085.00; 1600.00; 1600.00; 600.00; 600.00; 0.00; 0.00; 
307157; 101329; -1.17; 28.3; -0.632; -0.072; 9.786; 0.003; 0.003; -0.013; 26.532; 10.648; 2.746; -179.6; 3.8; 160.8; 31.7; -39.98; 8.15; 23.1; 12; 2025-05-13; 10:18:54; 51.935535; 4.194972; -126.863113; -24.271477; 7.7; 0.00; 1099.00; 1101.00; 643.00; 1086.00; 1601.00; 1599.00; 600.00; 599.00; 0.00; 0.00; 
307257; 101329; -1.18; 28.2; -0.623; 0.086; 9.753; 0.005; 0.002; 0.002; 26.532; 10.648; 2.746; -179.6; 3.8; 160.6; 31.7; -39.98; 8.15; 23.1; 12; 2025-05-13; 10:18:54; 51.935535; 4.194972; -126.863113; -24.271477; 7.8; 0.00; 1100.00; 1102.00; 614.00; 1067.00; 1600.00; 1599.00; 599.00; 599.00; 0.00; 0.00; 
307357; 101329; -1.16; 28.3; -0.637; 0.072; 9.844; 0.002; 0.004; -0.001; 26.532; 10.648; 2.746; -179.6; 3.8; 160.5; 31.7; -41.03; 8.26; 23.1; 12; 2025-05-13; 10:18:54; 51.935535; 4.194972; -126.863113; -24.271477; 7.8; 0.00; 1099.00; 1099.00; 640.00; 1085.00; 1600.00; 1599.00; 599.00; 599.00; 0.00; 0.00; 
307457; 101328; -1.09; 28.3; -0.675; -0.005; 9.676; 0.019; 0.005; -0.009; 26.532; 10.648; 2.746; -179.6; 3.8; 160.4; 31.7; -43.14; 8.46; 23.1; 12; 2025-05-13; 10:18:54; 51.935535; 4.194972; -126.863113; -24.271477; 7.8; 0.00; 1099.00; 1100.00; 642.00; 1084.00; 1599.00; 1600.00; 600.00; 599.00; 0.00; 0.00; 
307557; 101327; -0.96; 28.3; -0.627; 0.062; 9.690; 0.001; 0.002; -0.001; 25.648; 8.696; 3.604; -179.6; 3.8; 160.5; 31.7; -41.03; 8.26; 23.1; 12; 2025-05-13; 10:18:54; 51.935535; 4.194972; -126.863113; -24.271477; 7.8; 0.00; 1099.00; 1099.00; 637.00; 1086.00; 1600.00; 1599.00; 600.00; 600.00; 0.00; 0.00; 
307657; 101327; -0.99; 28.3; -0.613; 0.000; 9.599; 0.010; 0.002; 0.002; 25.648; 8.696; 3.604; -179.7; 3.8; 160.5; 31.7; -44.19; 8.57; 23.1; 12; 2025-05-13; 10:18:54; 51.935535; 4.194972; -126.863113; -24.271477; 7.8; 0.00; 1099.00; 1099.00; 637.00; 1083.00; 1598.00; 1599.00; 599.00; 599.00; 0.00; 0.00; 
307757; 101327; -0.98; 28.3; -0.632; 0.053; 9.676; 0.029; 0.002; -0.005; 25.648; 8.696; 3.604; -179.7; 3.8; 160.6; 31.7; -53.66; 9.44; 23.1; 12; 2025-05-13; 10:18:54; 51.935535; 4.194972; -126.863113; -24.271477; 7.8; 0.00; 1100.00; 1100.00; 636.00; 1084.00; 1600.00; 1599.00; 599.00; 599.00; 0.00; 0.00; 
307857; 101327; -0.98; 28.3; -0.646; -0.101; 9.676; 0.030; 0.004; -0.016; 25.648; 8.696; 3.604; -179.7; 3.8; 160.6; 31.6; -44.19; 8.57; 23.1; 12; 2025-05-13; 10:18:54; 51.935535; 4.194972; -126.863113; -24.271477; 7.8; 0.00; 1099.00; 1101.00; 639.00; 1087.00; 1598.00; 1601.00; 599.00; 599.00; 0.00; 0.00; 
307957; 101324; -0.74; 28.3; -0.608; 0.182; 9.705; 0.033; 0.006; -0.004; 25.648; 8.696; 3.604; -179.7; 3.8; 160.6; 31.7; -44.19; 8.57; 23.1; 12; 2025-05-13; 10:18:54; 51.935535; 4.194972; -126.863113; -24.271477; 7.8; 0.00; 1099.00; 1099.00; 643.00; 1085.00; 1600.00; 1599.00; 600.00; 599.00; 0.00; 0.00; 
308057; 101327; -1.00; 28.3; -0.651; -0.110; 9.762; -0.015; 0.003; 0.002; 25.648; 8.696; 3.604; -179.7; 3.8; 160.7; 31.7; -43.14; 8.46; 23.9; 12; 2025-05-13; 10:18:54; 51.935535; 4.194972; -126.863113; -24.271477; 7.8; 0.00; 1099.00; 1101.00; 646.00; 1084.00; 1599.00; 1599.00; 599.00; 599.00; 0.00; 0.00; 
308157; 101329; -1.11; 28.3; -0.623; 0.125; 9.700; 0.001; 0.004; -0.012; 25.648; 8.696; 3.604; -179.7; 3.8; 160.7; 31.7; -41.03; 8.26; 23.1; 12; 2025-05-13; 10:18:55; 51.935535; 4.194971; -126.943146; -24.252886; 7.8; 0.00; 1100.00; 1099.00; 635.00; 1086.00; 1598.00; 1599.00; 599.00; 599.00; 0.00; 0.00; 
308257; 101325; -0.82; 28.3; -0.666; 0.067; 9.666; 0.032; 0.001; -0.002; 25.648; 8.696; 3.604; -179.7; 3.8; 160.7; 31.7; -37.88; 7.93; 23.1; 12; 2025-05-13; 10:18:55; 51.935535; 4.194971; -126.943146; -24.252886; 7.8; 0.00; 1099.00; 1099.00; 640.00; 1083.00; 1599.00; 1599.00; 599.00; 599.00; 0.00; 0.00; 
308357; 101329; -1.13; 28.3; -0.666; 0.005; 9.753; 0.027; 0.002; -0.006; 25.648; 8.696; 3.604; -179.7; 3.8; 160.8; 31.7; -47.35; 8.87; 23.9; 12; 2025-05-13; 10:18:55; 51.935535; 4.194971; -126.943146; -24.252886; 7.7; 0.00; 1100.00; 1099.00; 645.00; 1085.00; 1599.00; 1600.00; 606.00; 599.00; 0.00; 0.00; 
308457; 101326; -0.92; 28.3; -0.623; 0.057; 9.748; 0.005; 0.004; -0.005; 25.648; 8.696; 3.604; -179.7; 3.8; 160.8; 31.7; -48.40; 8.97; 23.9; 12; 2025-05-13; 10:18:55; 51.935535; 4.194971; -126.943146; -24.252886; 7.7; 0.00; 1099.00; 1099.00; 642.00; 1086.00; 1599.00; 1600.00; 600.00; 600.00; 0.00; 0.00; 
308557; 101327; -0.97; 28.3; -0.642; 0.091; 9.671; 0.018; 0.004; -0.003; 25.648; 8.696; 3.604; -179.7; 3.8; 160.8; 31.7; -46.29; 8.77; 23.1; 12; 2025-05-13; 10:18:55; 51.935535; 4.194971; -126.943146; -24.252886; 7.7; 0.00; 1099.00; 1099.00; 646.00; 1085.00; 1599.00; 1599.00; 599.00; 599.00; 0.00; 0.00; 
308657; 101327; -1.16; 28.3; -0.661; -0.019; 9.796; 0.023; 0.004; -0.002; 25.648; 8.696; 3.604; -179.7; 3.8; 160.9; 31.7; -41.03; 8.26; 23.9; 12; 2025-05-13; 10:18:55; 51.935535; 4.194971; -126.943146; -24.252886; 7.7; 0.00; 1100.00; 1101.00; 642.00; 1087.00; 1599.00; 1599.00; 599.00; 599.00; 0.00; 0.00; 
308757; 101325; -0.80; 28.3; -0.680; 0.034; 9.724; -0.006; 0.003; -0.010; 25.648; 8.696; 3.604; -179.7; 3.8; 160.9; 31.7; -46.29; 8.77; 23.1; 12; 2025-05-13; 10:18:55; 51.935535; 4.194971; -126.943146; -24.252886; 7.7; 0.00; 1099.00; 1099.00; 643.00; 1085.00; 1600.00; 1599.00; 599.00; 599.00; 0.00; 0.00; 
308857; 101328; -1.07; 28.3; -0.685; 0.057; 9.719; -0.003; 0.001; -0.009; 25.648; 8.696; 3.604; -179.7; 3.8; 160.9; 31.7; -41.03; 8.26; 23.1; 12; 2025-05-13; 10:18:55; 51.935535; 4.194971; -126.943146; -24.252886; 7.7; 0.00; 1099.00; 1100.00; 643.00; 1086.00; 1600.00; 1600.00; 600.00; 599.00; 0.00; 0.00; 
308957; 101329; -1.16; 28.3; -0.618; 0.086; 9.733; 0.023; 0.004; 0.001; 25.648; 8.696; 3.604; -179.7; 3.8; 160.9; 31.7; -39.98; 8.15; 23.9; 12; 2025-05-13; 10:18:55; 51.935535; 4.194971; -126.943146; -24.252886; 7.7; 0.00; 1099.00; 1100.00; 642.00; 1091.00; 1599.00; 1599.00; 600.00; 599.00; 0.00; 0.00; 
309057; 101328; -1.05; 28.3; -0.713; 0.057; 9.690; 0.011; 0.004; -0.009; 25.648; 8.696; 3.604; -179.7; 3.8; 161.0; 31.7; -39.98; 8.15; 23.1; 12; 2025-05-13; 10:18:55; 51.935535; 4.194971; -126.943146; -24.252886; 7.7; 0.00; 1096.00; 1100.00; 642.00; 1085.00; 1599.00; 1599.00; 599.00; 599.00; 0.00; 0.00; 
309157; 101329; -1.15; 28.3; -0.584; 0.034; 9.743; 0.002; 0.001; -0.015; 25.648; 8.696; 3.604; -179.7; 3.8; 161.0; 31.6; -53.66; 9.44; 23.9; 12; 2025-05-13; 10:18:56; 51.935535; 4.194970; -126.977463; -24.252886; 7.7; 0.00; 1099.00; 1100.00; 645.00; 1086.00; 1600.00; 1599.00; 599.00; 599.00; 0.00; 0.00; 
309257; 101329; -1.14; 28.3; -0.575; 0.235; 9.666; 0.014; 0.004; -0.002; 25.648; 8.696; 3.604; -179.7; 3.8; 161.0; 31.7; -46.29; 8.77; 23.9; 12; 2025-05-13; 10:18:56; 51.935535; 4.194970; -126.977463; -24.252886; 7.7; 0.00; 1099.00; 1099.00; 643.00; 1085.00; 1599.00; 1600.00; 599.00; 599.00; 0.00; 0.00; 
309357; 101329; -1.18; 28.3; -0.637; -0.043; 9.757; 0.022; -0.001; -0.001; 25.648; 8.696; 3.604; -179.7; 3.8; 161.0; 31.7; -47.35; 8.87; 23.1; 12; 2025-05-13; 10:18:56; 51.935535; 4.194970; -126.977463; -24.252886; 7.7; 0.00; 1099.00; 1102.00; 639.00; 1087.00; 1598.00; 1600.00; 600.00; 600.00; 0.00; 0.00; 
309457; 101329; -1.13; 28.3; -0.608; 0.053; 9.757; 0.004; 0.004; -0.006; 25.648; 8.696; 3.604; -179.7; 3.8; 161.1; 31.7; -56.81; 9.71; 23.9; 12; 2025-05-13; 10:18:56; 51.935535; 4.194970; -126.977463; -24.252886; 7.7; 0.00; 1099.00; 1099.00; 639.00; 1084.00; 1599.00; 1599.00; 599.00; 599.00; 0.00; 0.00; 
309557; 101329; -1.12; 28.3; -0.699; -0.019; 9.724; -0.006; 0.003; -0.005; 25.648; 8.696; 3.604; -179.7; 3.8; 161.1; 31.7; -44.19; 8.57; 23.9; 12; 2025-05-13; 10:18:56; 51.935535; 4.194970; -126.977463; -24.252886; 7.7; 0.00; 1099.00; 1100.00; 637.00; 1085.00; 1599.00; 1599.00; 599.00; 599.00; 0.00; 0.00; 
309657; 101328; -1.06; 28.3; -0.709; 0.038; 9.690; 0.013; 0.004; -0.004; 25.648; 8.696; 3.604; -179.7; 3.8; 161.1; 31.7; -41.03; 8.26; 23.9; 12; 2025-05-13; 10:18:56; 51.935535; 4.194970; -126.977463; -24.252886; 7.7; 0.00; 1095.00; 1099.00; 640.00; 1083.00; 1600.00; 1599.00; 599.00; 599.00; 0.00; 0.00; 
309757; 101328; -1.08; 28.3; -0.618; 0.057; 9.772; 0.023; 0.001; -0.004; 25.648; 8.696; 3.604; -179.7; 3.8; 161.1; 31.7; -43.14; 8.46; 23.9; 12; 2025-05-13; 10:18:56; 51.935535; 4.194970; -126.977463; -24.252886; 7.7; 0.00; 1099.00; 1099.00; 639.00; 1083.00; 1597.00; 1600.00; 599.00; 599.00; 0.00; 0.00; 
309857; 101327; -1.02; 28.3; -0.704; -0.096; 9.719; 0.003; 0.003; -0.007; 25.648; 8.696; 3.604; -179.8; 3.8; 161.1; 31.7; -47.35; 8.87; 23.9; 12; 2025-05-13; 10:18:56; 51.935535; 4.194970; -126.977463; -24.252886; 7.7; 0.00; 1098.00; 1099.00; 640.00; 1084.00; 1599.00; 1600.00; 600.00; 600.00; 0.00; 0.00; 
309957; 101327; -0.98; 28.3; -0.728; 0.115; 9.551; 0.003; 0.001; -0.004; 27.417; 8.696; 2.917; -179.7; 3.8; 161.2; 31.7; -51.55; 9.25; 23.9; 12; 2025-05-13; 10:18:56; 51.935535; 4.194970; -126.977463; -24.252886; 7.7; 0.00; 1100.00; 1102.00; 642.00; 1085.00; 1599.00; 1599.00; 599.00; 599.00; 0.00; 0.00; 
310057; 101324; -0.77; 28.3; -0.613; 0.091; 9.810; 0.010; 0.005; -0.007; 27.417; 8.696; 2.917; -179.7; 3.8; 161.3; 31.7; -47.35; 8.87; 23.9; 12; 2025-05-13; 10:18:56; 51.935535; 4.194970; -126.977463; -24.252886; 7.7; 0.00; 1099.00; 1100.00; 636.00; 1085.00; 1599.00; 1599.00; 599.00; 599.00; 0.00; 0.00; 
310157; 101325; -0.84; 28.3; -0.642; 0.115; 9.623; 0.025; 0.005; -0.003; 27.417; 8.696; 2.917; -179.7; 3.8; 161.3; 31.7; -53.66; 9.44; 23.9; 12; 2025-05-13; 10:18:57; 51.935535; 4.194971; -126.908829; -24.308546; 7.7; 0.00; 1099.00; 1101.00; 639.00; 1086.00; 1598.00; 1599.00; 599.00; 599.00; 0.00; 0.00; 
310257; 101328; -1.10; 28.3; -0.728; -0.091; 9.681; 0.006; 0.004; -0.003; 27.417; 8.696; 2.917; -179.7; 3.8; 161.4; 31.6; -44.19; 8.57; 23.9; 12; 2025-05-13; 10:18:57; 51.935535; 4.194971; -126.908829; -24.308546; 7.7; 0.00; 1099.00; 1099.00; 638.00; 1087.00; 1600.00; 1600.00; 600.00; 600.00; 0.00; 0.00; 
310357; 101327; -0.98; 28.3; -0.579; 0.062; 9.719; 0.000; 0.003; -0.012; 27.417; 8.696; 2.917; -179.7; 3.8; 161.4; 31.7; -48.40; 8.97; 23.9; 12; 2025-05-13; 10:18:57; 51.935535; 4.194971; -126.908829; -24.308546; 8.0; 0.00; 1098.00; 1099.00; 642.00; 1087.00; 1600.00; 1599.00; 600.00; 600.00; 0.00; 0.00; 
310457; 101326; -0.92; 28.3; -0.642; -0.010; 9.762; 0.017; 0.002; -0.010; 27.417; 10.471; 3.261; -179.8; 3.8; 161.3; 31.7; -43.14; 8.46; 23.9; 12; 2025-05-13; 10:18:57; 51.935535; 4.194971; -126.908829; -24.308546; 8.0; 0.00; 1095.00; 1100.00; 640.00; 1083.00; 1598.00; 1599.00; 599.00; 599.00; 0.00; 0.00; 
310557; 101328; -1.07; 28.3; -0.646; 0.010; 9.724; 0.026; 0.004; 0.000; 27.417; 10.471; 3.261; -179.8; 3.8; 161.2; 31.6; -47.35; 8.87; 23.9; 12; 2025-05-13; 10:18:57; 51.935535; 4.194971; -126.908829; -24.308546; 8.0; 0.00; 1099.00; 1099.00; 642.00; 1085.00; 1598.00; 1599.00; 607.00; 599.00; 0.00; 0.00; 
310657; 101330; -1.19; 28.3; -0.666; -0.096; 9.681; 0.009; 0.000; -0.006; 27.417; 10.471; 3.261; -179.8; 3.8; 161.1; 31.7; -47.35; 8.87; 23.9; 12; 2025-05-13; 10:18:57; 51.935535; 4.194971; -126.908829; -24.308546; 8.0; 0.00; 1099.00; 1099.00; 646.00; 1086.00; 1599.00; 1600.00; 599.00; 600.00; 0.00; 0.00; 
310757; 101329; -1.13; 28.3; -0.661; 0.038; 9.757; 0.022; 0.002; -0.007; 27.417; 10.471; 3.261; -179.8; 3.8; 161.0; 31.7; -48.40; 8.97; 23.9; 12; 2025-05-13; 10:18:57; 51.935535; 4.194971; -126.908829; -24.308546; 8.0; 0.00; 1099.00; 1100.00; 647.00; 1086.00; 1600.00; 1599.00; 599.00; 600.00; 0.00; 0.00; 
310857; 101328; -1.03; 28.3; -0.560; -0.024; 9.762; 0.025; 0.002; 0.000; 27.417; 10.471; 3.261; -179.8; 3.8; 160.9; 31.7; -43.14; 8.46; 23.9; 12; 2025-05-13; 10:18:57; 51.935535; 4.194971; -126.908829; -24.308546; 8.0; 0.00; 1100.00; 1100.00; 645.00; 1086.00; 1599.00; 1599.00; 599.00; 599.00; 0.00; 0.00; 
310957; 101329; -1.13; 28.3; -0.603; -0.105; 9.676; -0.005; 0.002; -0.006; 27.417; 10.471; 3.261; -179.8; 3.8; 160.8; 31.7; -48.40; 8.97; 23.9; 12; 2025-05-13; 10:18:57; 51.935535; 4.194971; -126.908829; -24.308546; 8.0; 0.00; 1099.00; 1100.00; 639.00; 1082.00; 1599.00; 1599.00; 599.00; 599.00; 0.00; 0.00; 
311057; 101329; -1.17; 28.3; -0.690; 0.196; 9.690; -0.007; 0.004; -0.007; 27.417; 10.471; 3.261; -179.8; 3.8; 160.8; 31.7; -46.29; 8.77; 23.9; 12; 2025-05-13; 10:18:57; 51.935535; 4.194971; -126.908829; -24.308546; 8.0; 0.00; 1100.00; 1099.00; 642.00; 1086.00; 1600.00; 1599.00; 599.00; 599.00; 0.00; 0.00; 
311157; 101328; -1.09; 28.3; -0.737; 0.105; 9.930; 0.007; 0.003; -0.001; 27.417; 10.471; 3.261; -179.8; 3.8; 160.7; 31.7; -51.55; 9.25; 23.9; 12; 2025-05-13; 10:18:58; 51.935535; 4.194970; -127.000381; -24.271477; 8.0; 0.00; 1106.00; 1099.00; 643.00; 1084.00; 1599.00; 1599.00; 599.00; 600.00; 0.00; 0.00; 
311257; 101325; -0.86; 28.3; -0.579; -0.096; 9.719; -0.014; 0.003; -0.010; 27.417; 10.471; 3.261; -179.8; 3.8; 160.6; 31.7; -46.29; 8.77; 23.9; 12; 2025-05-13; 10:18:58; 51.935535; 4.194970; -127.000381; -24.271477; 8.0; 0.00; 1078.00; 1099.00; 642.00; 1084.00; 1594.00; 1599.00; 599.00; 599.00; 0.00; 0.00; 
311357; 101328; -1.08; 28.3; -0.570; 0.014; 9.595; -0.004; 0.003; -0.010; 27.417; 10.471; 3.261; -179.8; 3.8; 160.5; 31.7; -53.66; 9.44; 23.9; 12; 2025-05-13; 10:18:58; 51.935535; 4.194970; -127.000381; -24.271477; 8.0; 0.00; 1098.00; 1101.00; 642.00; 1086.00; 1600.00; 1599.00; 599.00; 599.00; 0.00; 0.00; 
311457; 101328; -1.04; 28.3; -0.694; 0.153; 9.776; 0.026; 0.003; -0.001; 27.417; 10.471; 3.261; -179.8; 3.8; 160.5; 31.7; -51.55; 9.25; 23.9; 12; 2025-05-13; 10:18:58; 51.935535; 4.194970; -127.000381; -24.271477; 8.0; 0.00; 1099.00; 1099.00; 637.00; 1084.00; 1598.00; 1599.00; 599.00; 599.00; 0.00; 0.00; 
311557; 101327; -1.02; 28.3; -0.627; -0.091; 9.695; 0.033; 0.002; -0.006; 27.417; 10.471; 3.261; -179.8; 3.8; 160.4; 31.6; -55.76; 9.62; 23.9; 12; 2025-05-13; 10:18:58; 51.935535; 4.194970; -127.000381; -24.271477; 8.0; 0.00; 1099.00; 1100.00; 639.00; 1086.00; 1611.00; 1600.00; 599.00; 599.00; 0.00; 0.00; 
311657; 101329; -1.19; 28.3; -0.608; 0.125; 9.700; 0.007; -0.001; -0.005; 27.417; 10.471; 3.261; -179.8; 3.8; 160.4; 31.6; -51.55; 9.25; 23.9; 12; 2025-05-13; 10:18:58; 51.935535; 4.194970; -127.000381; -24.271477; 8.0; 0.00; 1098.00; 1100.00; 641.00; 1086.00; 1599.00; 1599.00; 599.00; 600.00; 0.00; 0.00; 
311757; 101331; -1.29; 28.3; -0.623; -0.024; 9.685; 0.009; 0.004; -0.005; 27.417; 10.471; 3.261; -179.8; 3.8; 160.3; 31.7; -47.35; 8.87; 23.9; 12; 2025-05-13; 10:18:58; 51.935535; 4.194970; -127.000381; -24.271477; 8.0; 0.00; 1099.00; 1100.00; 640.00; 1085.00; 1598.00; 1599.00; 599.00; 599.00; 0.00; 0.00; 
311857; 101327; -0.97; 28.3; -0.637; 0.062; 9.681; 0.009; 0.007; -0.003; 26.355; 9.406; 3.261; -179.8; 3.8; 160.3; 31.6; -53.66; 9.44; 23.9; 12; 2025-05-13; 10:18:58; 51.935535; 4.194970; -127.000381; -24.271477; 8.0; 0.00; 1097.00; 1100.00; 640.00; 1085.00; 1602.00; 1599.00; 599.00; 599.00; 0.00; 0.00; 
311957; 101329; -1.16; 28.3; -0.651; -0.024; 9.709; -0.002; 0.004; -0.003; 26.355; 9.406; 3.261; -179.8; 3.8; 160.3; 31.6; -47.35; 8.87; 23.9; 12; 2025-05-13; 10:18:58; 51.935535; 4.194970; -127.000381; -24.271477; 8.0; 0.00; 1099.00; 1099.00; 638.00; 1084.00; 1600.00; 1599.00; 599.00; 599.00; 0.00; 0.00; 
312057; 101328; -1.10; 28.3; -0.646; 0.043; 9.738; 0.004; 0.003; -0.007; 26.355; 9.406; 3.261; -179.8; 3.8; 160.3; 31.6; -47.35; 8.87; 23.9; 12; 2025-05-13; 10:18:58; 51.935535; 4.194970; -127.000381; -24.271477; 8.0; 0.00; 1099.00; 1100.00; 641.00; 1086.00; 1600.00; 1600.00; 599.00; 599.00; 0.00; 0.00; 
312157; 101328; -1.08; 28.3; -0.646; 0.005; 9.690; -0.001; 0.004; -0.009; 26.355; 9.406; 3.261; -179.8; 3.8; 160.3; 31.7; -37.88; 7.93; 23.9; 12; 2025-05-13; 10:18:59; 51.935535; 4.194970; -127.000381; -24.178637; 8.0; 0.00; 1099.00; 1099.00; 639.00; 1085.00; 1599.00; 1599.00; 599.00; 599.00; 0.00; 0.00; 
312257; 101329; -1.16; 28.3; -0.723; 0.072; 9.662; 0.017; 0.004; -0.006; 26.355; 9.406; 3.261; -179.8; 3.8; 160.3; 31.7; -41.03; 8.26; 23.9; 12; 2025-05-13; 10:18:59; 51.935535; 4.194970; -127.000381; -24.178637; 8.1; 0.00; 1095.00; 1100.00; 639.00; 1085.00; 1599.00; 1599.00; 599.00; 599.00; 0.00; 0.00; 
312357; 101331; -1.29; 28.3; -0.670; 0.215; 9.805; 0.021; 0.004; 0.000; 27.593; 10.293; 3.432; -179.7; 3.8; 160.3; 31.7; -47.35; 8.87; 23.9; 12; 2025-05-13; 10:18:59; 51.935535; 4.194970; -127.000381; -24.178637; 8.1; 0.00; 1096.00; 1099.00; 644.00; 1085.00; 1599.00; 1599.00; 599.00; 599.00; 0.00; 0.00; 
312457; 101329; -1.17; 28.3; -0.656; -0.158; 9.800; 0.013; 0.002; -0.003; 27.593; 10.293; 3.432; -179.8; 3.8; 160.3; 31.7; -46.29; 8.77; 23.9; 12; 2025-05-13; 10:18:59; 51.935535; 4.194970; -127.000381; -24.178637; 8.1; 0.00; 1099.00; 1099.00; 643.00; 1083.00; 1599.00; 1599.00; 600.00; 599.00; 0.00; 0.00; 
312557; 101329; -1.12; 28.3; -0.632; 0.182; 9.748; -0.005; 0.004; -0.010; 27.593; 10.293; 3.432; -179.7; 3.8; 160.2; 31.7; -53.66; 9.44; 23.9; 12; 2025-05-13; 10:18:59; 51.935535; 4.194970; -127.000381; -24.178637; 8.1; 0.00; 1099.00; 1099.00; 643.00; 1085.00; 1599.00; 1599.00; 600.00; 600.00; 0.00; 0.00; 
312657; 101328; -1.10; 28.3; -0.666; 0.158; 9.810; 0.005; 0.003; -0.001; 27.593; 10.293; 3.432; -179.7; 3.8; 160.2; 31.7; -51.55; 9.25; 23.9; 12; 2025-05-13; 10:18:59; 51.935535; 4.194970; -127.000381; -24.178637; 8.1; 0.00; 1099.00; 1101.00; 643.00; 1084.00; 1599.00; 1595.00; 599.00; 599.00; 0.00; 0.00; 
312757; 101328; -1.06; 28.3; -0.656; -0.091; 9.671; 0.011; 0.002; -0.007; 27.593; 10.293; 3.432; -179.7; 3.8; 160.2; 31.7; -47.35; 8.87; 23.9; 12; 2025-05-13; 10:18:59; 51.935535; 4.194970; -127.000381; -24.178637; 8.1; 0.00; 1099.00; 1100.00; 644.00; 1083.00; 1600.00; 1599.00; 599.00; 599.00; 0.00; 0.00; 
312857; 101328; -1.10; 28.3; -0.594; 0.153; 9.695; 0.017; 0.005; -0.009; 27.593; 10.293; 3.432; -179.7; 3.8; 160.2; 31.7; -47.35; 8.87; 23.9; 12; 2025-05-13; 10:18:59; 51.935535; 4.194970; -127.000381; -24.178637; 8.1; 0.00; 1099.00; 1099.00; 646.00; 1083.00; 1598.00; 1599.00; 599.00; 599.00; 0.00; 0.00; 
312957; 101329; -1.14; 28.3; -0.666; 0.101; 9.700; 0.023; 0.001; 0.001; 27.593; 10.293; 3.432; -179.7; 3.8; 160.1; 31.7; -51.55; 9.25; 23.9; 12; 2025-05-13; 10:18:59; 51.935535; 4.194970; -127.000381; -24.178637; 8.1; 0.00; 1094.00; 1099.00; 643.00; 1085.00; 1600.00; 1599.00; 600.00; 599.00; 0.00; 0.00; 
313057; 101326; -0.92; 28.3; -0.570; 0.014; 9.695; 0.000; 0.005; -0.006; 27.593; 10.293; 3.432; -179.7; 3.8; 160.1; 31.7; -51.55; 9.25; 23.9; 12; 2025-05-13; 10:18:59; 51.935535; 4.194970; -127.000381; -24.178637; 8.1; 0.00; 1102.00; 1100.00; 640.00; 1085.00; 1599.00; 1599.00; 600.00; 599.00; 0.00; 0.00; 
313157; 101327; -0.96; 28.3; -0.646; 0.110; 9.753; 0.000; 0.005; -0.010; 27.593; 10.293; 3.432; -179.7; 3.8; 160.1; 31.6; -51.55; 9.25; 23.9; 12; 2025-05-13; 10:19:00; 51.935535; 4.194969; -127.034698; -24.122978; 8.1; 0.00; 1100.00; 1100.00; 646.00; 1085.00; 1599.00; 1599.00; 599.00; 599.00; 0.00; 0.00; 
313257; 101328; -1.06; 28.3; -0.579; 0.067; 9.786; 0.016; 0.002; -0.004; 27.593; 10.293; 3.432; -179.7; 3.8; 160.1; 31.7; -53.66; 9.44; 23.9; 12; 2025-05-13; 10:19:00; 51.935535; 4.194969; -127.034698; -24.122978; 8.1; 0.00; 1099.00; 1114.00; 670.00; 1086.00; 1599.00; 1599.00; 599.00; 599.00; 0.00; 0.00; 
313357; 101330; -1.20; 28.3; -0.618; -0.029; 9.743; 0.001; 0.003; -0.007; 27.593; 10.293; 3.432; -179.7; 3.8; 160.1; 31.7; -46.29; 8.77; 23.9; 12; 2025-05-13; 10:19:00; 51.935535; 4.194969; -127.034698; -24.122978; 8.1; 0.00; 1099.00; 1092.00; 638.00; 1085.00; 1599.00; 1600.00; 600.00; 599.00; 0.00; 0.00; 
313457; 101328; -1.08; 28.3; -0.603; 0.101; 9.714; -0.003; 0.002; -0.007; 27.593; 10.293; 3.432; -179.7; 3.8; 160.0; 31.7; -44.19; 8.57; 23.9; 12; 2025-05-13; 10:19:00; 51.935535; 4.194969; -127.034698; -24.122978; 8.1; 0.00; 1099.00; 1099.00; 636.00; 1084.00; 1598.00; 1600.00; 600.00; 600.00; 0.00; 0.00; 
313557; 101329; -1.18; 28.3; -0.589; -0.010; 9.709; 0.019; 0.004; 0.001; 27.593; 10.293; 3.432; -179.7; 3.7; 160.0; 31.7; -46.29; 8.77; 23.9; 12; 2025-05-13; 10:19:00; 51.935535; 4.194969; -127.034698; -24.122978; 8.1; 0.00; 1099.00; 1099.00; 640.00; 1084.00; 1601.00; 1599.00; 599.00; 599.00; 0.00; 0.00; 
313657; 101327; -1.00; 28.3; -0.579; -0.096; 9.829; 0.002; 0.003; -0.005; 27.593; 10.293; 3.432; -179.7; 3.7; 160.0; 31.7; -47.35; 8.87; 23.9; 12; 2025-05-13; 10:19:00; 51.935535; 4.194969; -127.034698; -24.122978; 8.1; 0.00; 1099.00; 1100.00; 640.00; 1084.00; 1600.00; 1599.00; 599.00; 599.00; 0.00; 0.00; 
313757; 101327; -0.97; 28.3; -0.637; 0.024; 9.709; 0.001; 0.004; -0.006; 27.593; 10.293; 3.432; -179.7; 3.7; 160.0; 31.7; -48.40; 8.97; 23.9; 12; 2025-05-13; 10:19:00; 51.935535; 4.194969; -127.034698; -24.122978; 8.1; 0.00; 1099.00; 1099.00; 639.00; 1085.00; 1601.00; 1599.00; 599.00; 599.00; 0.00; 0.00; 
313857; 101327; -1.01; 28.3; -0.690; 0.019; 9.776; 0.006; 0.004; -0.005; 27.593; 10.293; 3.432; -179.8; 3.7; 160.0; 31.7; -53.66; 9.44; 23.9; 12; 2025-05-13; 10:19:00; 51.935535; 4.194969; -127.034698; -24.122978; 8.1; 0.00; 1099.00; 1099.00; 639.00; 1088.00; 1602.00; 1602.00; 602.00; 602.00; 0.00; 0.00; 
313957; 101328; -1.06; 28.3; -0.594; -0.048; 9.772; 0.005; 0.002; -0.001; 27.593; 10.293; 3.432; -179.8; 3.7; 160.0; 31.7; -47.35; 8.87; 23.9; 12; 2025-05-13; 10:19:00; 51.935535; 4.194969; -127.034698; -24.122978; 8.1; 0.00; 1099.00; 1099.00; 638.00; 1085.00; 1599.00; 1599.00; 599.00; 599.00; 0.00; 0.00; 
314057; 101331; -1.28; 28.3; -0.651; 0.053; 9.762; 0.007; 0.004; -0.010; 27.593; 10.293; 3.432; -179.8; 3.7; 159.9; 31.7; -51.55; 9.25; 23.9; 12; 2025-05-13; 10:19:00; 51.935535; 4.194969; -127.034698; -24.122978; 8.1; 0.00; 1100.00; 1099.00; 637.00; 1083.00; 1599.00; 1599.00; 599.00; 599.00; 0.00; 0.00; 
314157; 101328; -1.07; 28.3; -0.594; 0.029; 9.753; 0.003; 0.004; -0.004; 27.593; 10.293; 3.432; -179.8; 3.7; 159.9; 31.7; -46.29; 8.77; 23.9; 12; 2025-05-13; 10:19:01; 51.935535; 4.194970; -127.023239; -24.067318; 8.1; 0.00; 1096.00; 1100.00; 640.00; 1085.00; 1599.00; 1599.00; 599.00; 599.00; 0.00; 0.00; 
314257; 101329; -1.18; 28.3; -0.589; 0.005; 9.709; 0.010; 0.004; -0.003; 27.593; 10.293; 3.432; -179.8; 3.7; 159.9; 31.7; -48.40; 8.97; 23.9; 12; 2025-05-13; 10:19:01; 51.935535; 4.194970; -127.023239; -24.067318; 8.2; 0.00; 1099.00; 1100.00; 639.00; 1084.00; 1599.00; 1599.00; 599.00; 599.00; 0.00; 0.00; 
314357; 101332; -1.38; 28.3; -0.666; 0.038; 9.685; 0.012; 0.004; -0.005; 27.593; 10.293; 3.432; -179.8; 3.7; 159.9; 31.7; -51.55; 9.25; 23.9; 12; 2025-05-13; 10:19:01; 51.935535; 4.194970; -127.023239; -24.067318; 8.2; 0.00; 1099.00; 1100.00; 643.00; 1086.00; 1601.00; 1600.00; 600.00; 600.00; 0.00; 0.00; 
314457; 101331; -1.29; 28.3; -0.618; 0.168; 9.786; 0.020; 0.004; -0.001; 27.593; 10.293; 3.432; -179.7; 3.7; 159.9; 31.7; -48.40; 8.97; 23.9; 12; 2025-05-13; 10:19:01; 51.935535; 4.194970; -127.023239; -24.067318; 8.2; 0.00; 1093.00; 1100.00; 640.00; 1087.00; 1599.00; 1599.00; 599.00; 600.00; 0.00; 0.00; 
314557; 101329; -1.19; 28.3; -0.642; -0.014; 9.724; 0.013; 0.003; -0.005; 27.593; 10.293; 3.432; -179.8; 3.7; 159.9; 31.7; -51.55; 9.25; 23.9; 12; 2025-05-13; 10:19:01; 51.935535; 4.194970; -127.023239; -24.067318; 8.2; 0.00; 1101.00; 1099.00; 644.00; 1083.00; 1600.00; 1599.00; 599.00; 599.00; 0.00; 0.00; 
314657; 101327; -1.01; 28.3; -0.651; 0.101; 9.676; -0.001; 0.005; -0.011; 27.593; 10.293; 3.432; -179.7; 3.7; 159.9; 31.7; -48.40; 8.97; 23.9; 12; 2025-05-13; 10:19:01; 51.935535; 4.194970; -127.023239; -24.067318; 8.2; 0.00; 1099.00; 1102.00; 634.00; 1055.00; 1599.00; 1599.00; 599.00; 599.00; 0.00; 0.00; 
314757; 101330; -1.22; 28.3; -0.680; 0.115; 9.666; 0.011; 0.002; -0.005; 27.593; 10.293; 3.432; -179.7; 3.7; 159.9; 31.7; -48.40; 8.97; 23.9; 12; 2025-05-13; 10:19:01; 51.935535; 4.194970; -127.023239; -24.067318; 8.2; 0.00; 1099.00; 1102.00; 643.00; 1084.00; 1598.00; 1600.00; 600.00; 600.00; 0.00; 0.00; 
314857; 101329; -1.13; 28.3; -0.627; 0.014; 9.719; 0.004; 0.002; -0.005; 27.593; 10.293; 3.432; -179.7; 3.7; 159.9; 31.7; -51.55; 9.25; 23.9; 12; 2025-05-13; 10:19:01; 51.935535; 4.194970; -127.023239; -24.067318; 8.2; 0.00; 1099.00; 1099.00; 643.00; 1087.00; 1599.00; 1599.00; 600.00; 600.00; 0.00; 0.00; 
314957; 101328; -1.05; 28.3; -0.646; 0.067; 9.733; 0.007; 0.002; -0.003; 27.593; 10.293; 3.432; -179.7; 3.7; 159.8; 31.7; -48.40; 8.97; 23.9; 12; 2025-05-13; 10:19:01; 51.935535; 4.194970; -127.023239; -24.067318; 8.2; 0.00; 1100.00; 1098.00; 648.00; 1085.00; 1599.00; 1599.00; 599.00; 600.00; 0.00; 0.00; 
315057; 101331; -1.31; 28.3; -0.603; 0.029; 9.719; 0.012; 0.002; -0.007; 27.593; 10.293; 3.432; -179.7; 3.7; 159.8; 31.7; -56.81; 9.71; 23.9; 12; 2025-05-13; 10:19:01; 51.935535; 4.194970; -127.023239; -24.067318; 8.2; 0.00; 1099.00; 1013.00; 644.00; 1085.00; 1599.00; 1599.00; 599.00; 599.00; 0.00; 0.00; 
315157; 101332; -1.43; 28.3; -0.670; 0.072; 9.695; 0.007; 0.005; -0.005; 27.593; 10.293; 3.432; -179.7; 3.7; 159.8; 31.7; -41.03; 8.26; 23.9; 12; 2025-05-13; 10:19:02; 51.935535; 4.194969; -127.057556; -24.048840; 8.2; 0.00; 1099.00; 1099.00; 642.00; 1087.00; 1600.00; 1600.00; 599.00; 599.00; 0.00; 0.00; 
315257; 101332; -1.37; 28.3; -0.618; 0.048; 9.738; 0.003; 0.003; 0.000; 27.770; 8.341; 2.917; -179.7; 3.7; 160.0; 31.7; -44.19; 8.57; 23.9; 12; 2025-05-13; 10:19:02; 51.935535; 4.194969; -127.057556; -24.048840; 8.4; 0.00; 1099.00; 1099.00; 643.00; 1083.00; 1599.00; 1599.00; 600.00; 600.00; 0.00; 0.00; 
315357; 101333; -1.47; 28.3; -0.603; 0.024; 9.729; 0.013; 0.004; -0.010; 27.770; 8.341; 2.917; -179.7; 3.7; 160.2; 31.7; -51.55; 9.25; 23.9; 12; 2025-05-13; 10:19:02; 51.935535; 4.194969; -127.057556; -24.048840; 8.4; 0.00; 1099.00; 1099.00; 639.00; 1085.00; 1600.00; 1599.00; 599.00; 599.00; 0.00; 0.00; 
315457; 101334; -1.53; 28.3; -0.713; 0.053; 9.887; -0.007; 0.004; -0.003; 27.770; 8.341; 2.917; -179.7; 3.7; 160.3; 31.7; -51.55; 9.25; 23.9; 12; 2025-05-13; 10:19:02; 51.935535; 4.194969; -127.057556; -24.048840; 8.4; 0.00; 1100.00; 1100.00; 640.00; 1083.00; 1600.00; 1599.00; 599.00; 599.00; 0.00; 0.00; 
315557; 101331; -1.29; 28.3; -0.637; 0.101; 9.800; 0.032; 0.002; 0.004; 27.770; 8.341; 2.917; -179.7; 3.7; 160.5; 31.7; -47.35; 8.87; 23.9; 12; 2025-05-13; 10:19:02; 51.935535; 4.194969; -127.057556; -24.048840; 8.4; 0.00; 1098.00; 1099.00; 639.00; 1084.00; 1598.00; 1599.00; 599.00; 599.00; 0.00; 0.00; 
315657; 101334; -1.54; 28.3; -0.646; -0.230; 9.733; 0.020; 0.002; -0.012; 27.770; 8.341; 2.917; -179.8; 3.7; 160.6; 31.6; -47.35; 8.87; 23.9; 12; 2025-05-13; 10:19:02; 51.935535; 4.194969; -127.057556; -24.048840; 8.4; 0.00; 1093.00; 1099.00; 638.00; 1084.00; 1598.00; 1599.00; 599.00; 598.00; 0.00; 0.00; 
315757; 101331; -1.31; 28.3; -0.670; -0.053; 9.595; -0.006; 0.004; -0.011; 27.770; 8.341; 2.917; -179.8; 3.8; 160.8; 31.7; -53.66; 9.44; 23.9; 12; 2025-05-13; 10:19:02; 51.935535; 4.194969; -127.057556; -24.048840; 8.4; 0.00; 1103.00; 1101.00; 639.00; 1087.00; 1599.00; 1599.00; 599.00; 599.00; 0.00; 0.00; 
315857; 101332; -1.39; 28.3; -0.670; 0.101; 9.762; -0.003; 0.003; 0.003; 27.770; 8.341; 2.917; -179.8; 3.8; 160.9; 31.7; -43.14; 8.46; 23.9; 12; 2025-05-13; 10:19:02; 51.935535; 4.194969; -127.057556; -24.048840; 8.4; 0.00; 1096.00; 1100.00; 638.00; 1087.00; 1599.00; 1599.00; 599.00; 599.00; 0.00; 0.00; 
315957; 101329; -1.19; 28.3; -0.575; -0.034; 9.757; 0.016; 0.004; -0.002; 27.770; 8.341; 2.917; -179.8; 3.7; 161.0; 31.8; -53.66; 9.44; 23.9; 12; 2025-05-13; 10:19:02; 51.935535; 4.194969; -127.057556; -24.048840; 8.4; 0.00; 1096.00; 1100.00; 637.00; 1085.00; 1599.00; 1599.00; 599.00; 599.00; 0.00; 0.00; 
316057; 101329; -1.19; 28.3; -0.670; 0.000; 9.614; 0.013; 0.005; -0.015; 27.770; 8.341; 2.917; -179.9; 3.8; 161.1; 31.7; -48.40; 8.97; 23.9; 12; 2025-05-13; 10:19:02; 51.935535; 4.194969; -127.057556; -24.048840; 8.4; 0.00; 1095.00; 1099.00; 637.00; 1086.00; 1600.00; 1599.00; 599.00; 599.00; 0.00; 0.00; 
316157; 101328; -1.07; 28.3; -0.637; 0.120; 9.676; -0.001; 0.002; -0.006; 27.770; 8.341; 2.917; -179.8; 3.8; 161.2; 31.7; -53.66; 9.44; 23.9; 12; 2025-05-13; 10:19:03; 51.935535; 4.194968; -127.103333; -24.011658; 8.4; 0.00; 1099.00; 1101.00; 636.00; 1083.00; 1599.00; 1600.00; 600.00; 600.00; 0.00; 0.00; 
316257; 101329; -1.16; 28.3; -0.642; 0.024; 9.719; 0.002; 0.003; -0.005; 27.770; 8.341; 2.917; -179.8; 3.8; 161.3; 31.7; -55.76; 9.62; 23.9; 12; 2025-05-13; 10:19:03; 51.935535; 4.194968; -127.103333; -24.011658; 8.4; 0.00; 1099.00; 1107.00; 666.00; 1086.00; 1599.00; 1599.00; 599.00; 599.00; 0.00; 0.00; 
316357; 101332; -1.40; 28.3; -0.632; 0.077; 9.681; 0.005; 0.007; -0.011; 27.770; 8.341; 2.917; -179.8; 3.8; 161.4; 31.7; -44.19; 8.57; 23.9; 12; 2025-05-13; 10:19:03; 51.935535; 4.194968; -127.103333; -24.011658; 8.4; 0.00; 1100.00; 1101.00; 643.00; 1086.00; 1599.00; 1599.00; 599.00; 599.00; 0.00; 0.00; 
316457; 101333; -1.48; 28.3; -0.713; 0.148; 9.781; 0.003; 0.001; -0.005; 27.770; 8.341; 2.917; -179.8; 3.8; 161.5; 31.7; -53.66; 9.44; 23.9; 12; 2025-05-13; 10:19:03; 51.935535; 4.194968; -127.103333; -24.011658; 8.4; 0.00; 1099.00; 1100.00; 644.00; 1085.00; 1598.00; 1599.00; 599.00; 599.00; 0.00; 0.00; 
316557; 101332; -1.40; 28.3; -0.594; 0.000; 9.729; 0.011; 0.004; -0.004; 27.770; 8.341; 2.917; -179.8; 3.8; 161.6; 31.7; -44.19; 8.57; 23.9; 12; 2025-05-13; 10:19:03; 51.935535; 4.194968; -127.103333; -24.011658; 8.4; 0.00; 1099.00; 1099.00; 642.00; 1084.00; 1599.00; 1600.00; 600.00; 600.00; 0.00; 0.00; 
316657; 101333; -1.48; 28.3; -0.589; -0.019; 9.705; 0.018; 0.003; -0.012; 27.770; 8.341; 2.917; -179.8; 3.7; 161.7; 31.7; -48.40; 8.97; 23.9; 12; 2025-05-13; 10:19:03; 51.935535; 4.194968; -127.103333; -24.011658; 8.4; 0.00; 1099.00; 1099.00; 641.00; 1085.00; 1599.00; 1600.00; 599.00; 600.00; 0.00; 0.00; 
316757; 101332; -1.41; 28.3; -0.685; -0.005; 9.638; 0.019; 0.004; -0.001; 27.770; 8.341; 2.917; -179.8; 3.8; 161.8; 31.7; -55.76; 9.62; 23.9; 12; 2025-05-13; 10:19:03; 51.935535; 4.194968; -127.103333; -24.011658; 8.4; 0.00; 1100.00; 1102.00; 642.00; 1086.00; 1599.00; 1599.00; 599.00; 599.00; 0.00; 0.00; 
316857; 101331; -1.58; 28.3; -0.575; -0.129; 9.719; 0.014; 0.004; 0.002; 27.770; 8.341; 2.917; -179.9; 3.7; 161.9; 31.7; -46.29; 8.77; 23.9; 12; 2025-05-13; 10:19:03; 51.935535; 4.194968; -127.103333; -24.011658; 8.4; 0.00; 1099.00; 1100.00; 643.00; 1086.00; 1600.00; 1599.00; 599.00; 599.00; 0.00; 0.00; 
316957; 101333; -1.49; 28.3; -0.637; 0.043; 9.681; 0.014; 0.001; -0.007; 27.770; 8.341; 2.917; -179.9; 3.7; 162.0; 31.7; -48.40; 8.97; 23.9; 12; 2025-05-13; 10:19:03; 51.935535; 4.194968; -127.103333; -24.011658; 8.4; 0.00; 1099.00; 1099.00; 643.00; 1086.00; 1599.00; 1599.00; 599.00; 599.00; 0.00; 0.00; 
317057; 101332; -1.37; 28.3; -0.627; -0.010; 9.709; 0.012; 0.001; -0.007; 27.770; 8.341; 2.917; -179.9; 3.7; 162.0; 31.7; -48.40; 8.97; 23.9; 12; 2025-05-13; 10:19:03; 51.935535; 4.194968; -127.103333; -24.011658; 8.4; 0.00; 1099.00; 1099.00; 642.00; 1088.00; 1600.00; 1599.00; 600.00; 599.00; 0.00; 0.00; 
317157; 101329; -1.17; 28.3; -0.599; 0.129; 9.772; -0.003; 0.002; 0.003; 26.178; 10.293; 6.864; -179.8; 3.7; 161.9; 31.7; -51.55; 9.25; 23.9; 12; 2025-05-13; 10:19:04; 51.935535; 4.194967; -127.160500; -24.011658; 8.4; 0.00; 1099.00; 1099.00; 642.00; 1083.00; 1599.00; 1599.00; 599.00; 600.00; 0.00; 0.00; 
317257; 101329; -1.14; 28.3; -0.589; -0.029; 9.729; 0.016; 0.004; -0.003; 26.178; 10.293; 6.864; -179.8; 3.7; 161.7; 31.7; -48.40; 8.97; 23.9; 12; 2025-05-13; 10:19:04; 51.935535; 4.194967; -127.160500; -24.011658; 8.4; 0.00; 1099.00; 1099.00; 651.00; 1085.00; 1598.00; 1599.00; 599.00; 603.00; 0.00; 0.00; 
317357; 101330; -1.20; 28.3; -0.584; 0.014; 9.690; 0.019; 0.004; -0.011; 26.178; 10.293; 6.864; -179.8; 3.7; 161.6; 31.7; -46.29; 8.77; 23.9; 12; 2025-05-13; 10:19:04; 51.935535; 4.194967; -127.160500; -24.011658; 8.5; 0.00; 1099.00; 1101.00; 643.00; 1084.00; 1600.00; 1599.00; 599.00; 599.00; 0.00; 0.00; 
317457; 101329; -1.14; 28.3; -0.594; 0.101; 9.685; 0.019; 0.003; 0.000; 26.178; 10.293; 6.864; -179.8; 3.7; 161.5; 31.7; -47.35; 8.87; 23.9; 12; 2025-05-13; 10:19:04; 51.935535; 4.194967; -127.160500; -24.011658; 8.5; 0.00; 1099.00; 1099.00; 639.00; 1085.00; 1598.00; 1600.00; 600.00; 599.00; 0.00; 0.00; 
317557; 101333; -1.45; 28.3; -0.651; -0.024; 9.652; 0.010; 0.003; -0.003; 26.178; 10.293; 6.864; -179.8; 3.7; 161.3; 31.7; -47.35; 8.87; 23.9; 12; 2025-05-13; 10:19:04; 51.935535; 4.194967; -127.160500; -24.011658; 8.5; 0.00; 1099.00; 1101.00; 641.00; 1085.00; 1589.00; 1599.00; 600.00; 600.00; 0.00; 0.00; 
317657; 101333; -1.46; 28.3; -0.594; -0.019; 9.738; 0.012; 0.003; -0.011; 28.301; 11.713; 2.403; -179.8; 3.7; 161.1; 31.7; -47.35; 8.87; 23.9; 12; 2025-05-13; 10:19:04; 51.935535; 4.194967; -127.160500; -24.011658; 8.5; 0.00; 1099.00; 1100.00; 637.00; 1085.00; 1602.00; 1599.00; 599.00; 600.00; 0.00; 0.00; 
317757; 101331; -1.30; 28.3; -0.623; 0.067; 9.748; 0.003; 0.004; -0.004; 28.301; 11.713; 2.403; -179.8; 3.7; 161.0; 31.7; -47.35; 8.87; 23.9; 12; 2025-05-13; 10:19:04; 51.935535; 4.194967; -127.160500; -24.011658; 8.5; 0.00; 1099.00; 1100.00; 644.00; 1083.00; 1598.00; 1599.00; 599.00; 599.00; 0.00; 0.00; 
317857; 101331; -1.32; 28.3; -0.685; 0.024; 9.705; 0.005; 0.001; -0.001; 28.301; 11.713; 2.403; -179.8; 3.7; 160.8; 31.7; -48.40; 8.97; 23.9; 12; 2025-05-13; 10:19:04; 51.935535; 4.194967; -127.160500; -24.011658; 8.5; 0.00; 1099.00; 1099.00; 642.00; 1086.00; 1598.00; 1599.00; 599.00; 599.00; 0.00; 0.00; 
317957; 101331; -1.36; 28.3; -0.627; 0.005; 9.762; 0.007; 0.005; -0.007; 28.301; 11.713; 2.403; -179.8; 3.7; 160.6; 31.7; -47.35; 8.87; 23.9; 12; 2025-05-13; 10:19:04; 51.935535; 4.194967; -127.160500; -24.011658; 8.5; 0.00; 1096.00; 1099.00; 639.00; 1086.00; 1599.00; 1600.00; 600.00; 600.00; 0.00; 0.00; 
